NO_MUNICIPIO;CO_MUNICIPIO;NO_ENTIDADE;CO_ENTIDADE;TP_LOCALIZACAO;TP_LOCALIZACAO_DIFERENCIADA;IN_ENERGIA_REDE_PUBLICA;IN_ENERGIA_GERADOR_FOSSIL;IN_ENERGIA_RENOVAVEL;IN_ENERGIA_INEXISTENTE;IN_ESGOTO_REDE_PUBLICA;IN_ESGOTO_FOSSA_SEPTICA;IN_ESGOTO_FOSSA_COMUM;IN_ESGOTO_INEXISTENTE;IN_LIXO_QUEIMA;IN_TRATAMENTO_LIXO_SEPARACAO;QT_MAT_BAS;QT_DOC_BAS;COORDENADAS_LAT;COORDENADAS_LON
Santa Cecília;4215505;CEI ARI ALVES DA SILVA;42117771;1;0;1;0;0;0;1;0;0;0;0;1;68;11;-26.95880519;-50.42603374
Santa Cecília;4215505;CEI LUIZ CARLOS ELY;42117780;1;0;1;0;0;0;1;0;0;0;0;1;78;16;-26.9697795;-50.4181464
Praia Grande;4213807;CEI PEQUENO APRENDIZ;42117801;1;0;1;0;0;0;1;0;0;0;0;1;75;7;-29.194336;-49.9259708
Porto União;4213609;NUCLEO DE EDUCACAO INFANTIL PINGO DE GENTE;42117828;1;0;1;0;0;0;1;0;0;0;0;1;88;13;-26.23637;-51.08120333
Florianópolis;4205407;NEIM LAUSIMAR MARIA LAUS;42117836;1;0;1;0;0;0;1;0;0;0;0;1;642;37;-27.4908854;-48.4120381
Florianópolis;4205407;NEIM JOAO MACHADO DA SILVA;42117844;1;0;1;0;0;0;1;0;0;0;0;1;85;9;-27.58028548;-48.54030181
Florianópolis;4205407;NEIM COLONIA Z 11;42117852;1;0;1;0;0;0;1;0;0;0;0;1;169;15;-27.57388023;-48.43086102
Florianópolis;4205407;NEIM ORISVALDINA DA SILVA;42117860;1;0;1;0;0;0;1;0;0;0;0;1;159;14;-27.5992247;-48.4707335
Florianópolis;4205407;NEIM IDALINA OCHOA;42117879;1;0;1;0;0;0;1;0;0;0;0;1;170;13;-27.6662128;-48.5366373
Barra Velha;4202107;CEI MADRE PAULINA;42117887;1;0;1;0;0;0;1;0;0;0;0;0;179;21;-26.6281599;-48.6879563
Turvo;4218806;CRECHE BAIRRO SAO CRISTOVAO;42117895;1;0;1;0;0;0;1;0;0;0;0;0;35;2;-28.93453435;-49.67151267
São João do Sul;4216404;CEI PARAISO DA CRIANCA;42117917;1;0;1;0;0;0;0;1;0;0;0;0;135;14;-29.22270561;-49.80676834
Ituporanga;4208500;CENTRO DE EDUCACAO INFANTIL DR MARIO CESAR SENS;42117941;1;0;1;0;0;0;1;0;0;0;0;1;84;10;-27.4179591;-49.5891208
Ituporanga;4208500;CENTRO DE EDUCACAO INFANTIL CECILIA KOPP THIESEN;42117950;1;0;1;0;0;0;1;0;0;0;0;1;43;7;-27.40590288;-49.59992808
Cocal do Sul;4204251;EEF CRISTO REI;42117968;1;0;1;0;0;0;1;0;0;0;0;1;514;31;-28.59042648;-49.32850781
Criciúma;4204608;EMEB ADOLFO BACK;42118000;1;0;1;0;0;0;1;0;0;0;0;1;473;35;-28.69503118;-49.42844777
Criciúma;4204608;EMEB ERICO NONNENMACHER;42118018;1;0;1;0;0;0;1;0;0;0;0;1;275;18;-28.69001164;-49.39983549
São Bento do Sul;4215802;CEIM CASTELO ENCANTADO;42118042;1;0;1;0;0;0;1;1;0;0;0;1;213;21;-26.22936412;-49.41652855
Laguna;4209409;CEI MICKEY MOUSE;42118115;2;0;1;0;0;0;0;0;1;0;0;1;74;6;-28.38396154;-48.78956655
Pescaria Brava;4212650;CEI PEIXINHO COLORIDO;42118140;2;0;1;0;0;0;0;1;0;0;0;0;42;5;-28.3733194;-48.917719
Massaranduba;4210605;PE BALAO MAGICO;42118158;1;0;1;0;0;0;0;0;1;0;0;0;40;3;-26.6239355;-49.0158928
Guaramirim;4206504;EMEF E PE VEREADOR ARMIN BYLAARDT;42118182;1;0;1;0;0;0;1;0;0;0;0;1;100;18;-26.469866;-49.0349376
Guaramirim;4206504;EMEF E PRE ESCOLA PROFESSOR ATILANO KRUGER;42118190;1;0;1;0;0;0;0;1;0;0;0;1;304;18;-26.479628;-48.9839629
Fraiburgo;4205506;COLEGIO CARLOS DRUMMOND DE ANDRADE;42118239;1;0;1;0;0;0;1;0;0;0;0;0;381;24;-27.02725697;-50.90913092
Barra Velha;4202107;CENTRO EDUCACIONAL CHICO BENTO;42118247;1;0;1;0;0;0;1;0;0;0;0;1;93;12;-26.632369;-48.6910086
Maravilha;4210506;DOM SISTEMA EDUCACIONAL;42118255;1;0;1;0;0;0;0;1;0;0;0;1;214;22;-26.767805;-53.17535333
Blumenau;4202404;CEI DANIEL BRESSANINI;42118280;1;0;1;0;0;0;1;0;0;0;0;0;153;22;-26.880676;-49.0456463
Fraiburgo;4205506;CEM ANTONIO PORTO BURDA;42118328;1;0;1;0;0;0;1;0;0;0;0;1;409;24;-27.05712167;-50.93865833
Florianópolis;4205407;NEIM DORALICE TEODORA BASTOS;42118336;1;0;1;0;0;0;1;0;0;0;0;1;333;22;-27.43373669;-48.45663719
Caçador;4203006;EMEB VEREDA DOS TREVOS;42118344;1;0;1;0;0;0;1;1;0;0;0;1;223;15;-26.79218167;-51.00304667
Chapecó;4204202;CENTRO EDUC APRENDER BRINCAR CRESCER;42118352;1;0;1;0;0;0;1;0;0;0;0;1;130;13;-27.09695;-52.61459
Campo Alegre;4203303;EMEB MARIA JOSE DUARTE SILVA BERNARDES;42118395;1;0;1;0;1;0;0;1;0;0;0;1;605;28;-26.19138977;-49.26371931
Otacílio Costa;4211751;CEI CATARINA FUHRMANN;42118409;1;0;1;0;0;0;1;0;0;0;0;1;118;17;-27.5062396;-50.1194243
Agrolândia;4200200;CENTRO DE EDUCACAO INFANTIL CANTINHO FELIZ;42118484;1;0;1;0;0;0;1;0;0;0;0;1;132;18;-27.41052016;-49.83012157
Ibirama;4206900;CENTRO DE EDUCACAO INFANTIL MOISES AMARAL;42118530;1;0;1;0;0;0;0;1;0;0;0;1;101;13;-27.10300603;-49.51891459
Braço do Norte;4202800;CENTRO EDUCACIONAL INFANTIL MAE JOAQUINA;42118565;2;0;1;0;0;0;0;0;1;0;0;1;76;4;-28.31939696;-49.08526577
Campos Novos;4203600;PRE ESCOLA MUNICIPAL A CAMINHO DO FUTURO;42118590;1;0;1;0;0;0;1;0;0;0;0;1;312;13;-27.39789183;-51.20840256
Campos Novos;4203600;CRECHE MUNICIPAL JUBILEU DE PRATA;42118611;1;0;1;0;0;0;1;0;0;0;0;1;97;7;-27.39293224;-51.21129933
Laurentino;4209508;CEI INFANCIA FELIZ;42118620;1;0;1;0;0;0;1;0;0;0;0;1;117;21;-27.2182891;-49.7304018
Lontras;4209904;CENTRO DE EDUCACAO INFANTIL TURMINHA PARAISO;42118662;1;0;1;0;0;0;1;0;0;0;0;1;83;10;-27.12625689;-49.53627057
São Bento do Sul;4215802;COLEGIO FROEBEL;42118670;1;0;1;0;0;0;1;1;0;0;0;1;636;42;-26.25103098;-49.3821916
São Miguel do Oeste;4217204;CEI PRIMEIROS PASSOS;42118719;1;0;1;0;0;0;0;1;0;0;0;1;101;9;-26.7383289;-53.5227216
São Miguel do Oeste;4217204;CEI CRIANCA FELIZ;42118735;1;0;1;0;0;0;0;1;0;0;0;0;135;12;-26.7272204;-53.5339943
Chapecó;4204202;CENTRO EDUCACIONAL CUIDADO DE MAE LTDA ME;42118743;1;0;1;0;0;0;1;0;0;0;0;1;73;3;;
São José;4216602;CENTRO EDUCACIONAL MARIA MONTESSORI;42118751;1;0;1;0;0;0;1;0;0;0;0;1;166;15;-27.59753;-48.6114
Imaruí;4207205;EEF PE ITAMAR LUIZ DA COSTA;42118778;2;0;1;0;0;0;0;1;0;0;0;0;78;12;;
Chapecó;4204202;CEIM PEQUENOS HEROIS;42118832;1;0;1;0;0;0;0;0;1;0;0;1;220;15;-27.09815607;-52.6705552
Chapecó;4204202;CEIM SAO PEDRO;42118840;1;0;1;0;0;0;1;0;0;0;0;1;253;20;-27.09567859;-52.58877872
Chapecó;4204202;CEIM CRIANCA E ESPERANCA;42118867;1;0;1;0;0;0;1;0;1;0;0;1;294;23;-27.09056914;-52.62943222
Chapecó;4204202;CEIM NOVA VIDA;42118875;2;0;1;0;0;0;0;0;1;0;0;1;119;11;-27.1882953;-52.6486306
Chapecó;4204202;CEIM BRINCAR E CRESCER;42118883;1;0;1;0;0;0;0;1;0;0;0;1;311;19;-27.0904239;-52.5981393
Chapecó;4204202;CEIM CIRANDA DO SABER;42118891;1;0;1;0;0;0;0;0;1;0;0;1;165;15;-27.107743;-52.62842871
Chapecó;4204202;CEIM IRIS ABELLO;42118905;1;0;1;0;0;0;0;0;1;0;0;1;156;13;-27.0995412;-52.6334353
Chapecó;4204202;CEIM BRINCAR E APRENDER;42118913;1;0;1;0;0;0;0;1;0;0;0;1;130;9;-27.1171412;-52.62304054
Chapecó;4204202;CEIM UNIVERSO DA CRIANCA;42118921;1;0;1;0;0;0;0;1;0;0;0;1;209;21;-27.07843613;-52.6301541
Presidente Getúlio;4214003;CENTRO DE EDUCACAO INFANTIL MUNICIPAL PETER PAN;42118956;2;0;1;0;0;0;0;1;0;0;0;1;13;4;-27.11555959;-49.77205171
Chapecó;4204202;EB MUN MARIA BORDIGNON DESTRI;42118964;1;0;1;0;0;0;0;0;1;0;0;1;440;40;-27.06467324;-52.63850866
Chapecó;4204202;EB MUN SAO CRISTOVAO;42118972;1;0;1;0;0;0;0;0;1;0;0;1;669;40;-27.0856578;-52.6306012
Chapecó;4204202;CEIB CENTRO DE EDUCACAO;42119057;1;0;1;0;0;0;1;0;0;0;0;1;202;17;;
Nova Trento;4211504;CRECHE MUNICIPAL CIRANDA CIRANDINHA;42119065;1;0;1;0;0;0;1;0;0;0;0;1;121;10;-27.29719195;-48.94746078
Grão-Pará;4206108;CEI TIO PATINHAS;42119073;1;0;1;0;0;0;1;0;0;0;0;1;242;19;-28.1854035;-49.2137062
Abelardo Luz;4200101;EBM 25 DE MAIO;42119103;2;1;1;0;0;0;0;0;1;0;1;0;230;16;-26.6608581;-52.1449321
Lages;4209300;EMEB NOSSA SENHORA DOS PRAZERES;42119111;1;0;1;0;0;0;1;0;0;0;0;1;379;18;-27.84116345;-50.34584356
Lages;4209300;EMEF DOM HONORATO PIAZZERA;42119154;2;0;1;0;0;0;0;0;1;0;1;1;5;1;-27.81286833;-50.34609667
Lages;4209300;EMEB IZIDORO MARIN;42119162;1;0;1;0;0;0;1;0;0;0;0;1;328;21;-27.80511086;-50.37808811
Ponte Alta do Norte;4213351;CEME GENTE PEQUENA;42119170;1;0;1;0;0;0;1;0;0;0;0;0;95;10;-27.1703921;-50.4643571
Timbó;4218202;NUCLEO DE EDUCACAO INFANTIL LUAR ENCANTADO;42119227;1;0;1;0;0;0;0;1;0;0;0;1;125;19;-26.84304672;-49.27728087
Timbó;4218202;NUCLEO DE EDUCACAO INFANTIL PARAISO DA CRIANCA;42119235;1;0;1;0;0;0;0;1;0;0;0;1;136;18;-26.81232826;-49.26567267
Timbó;4218202;UNIDADE PRE ESCOLAR HORTENSIA;42119243;1;0;1;0;0;0;0;1;0;0;0;1;25;8;-26.82557369;-49.31284348
Araranguá;4201406;CENTRO EDUCACIONAL EDUSU KIDS;42119294;1;0;1;0;0;0;1;0;0;0;0;0;100;8;-28.94519;-49.497125
Imaruí;4207205;EEF GUILHERMINA ANA PEREIRA;42119308;2;0;1;0;0;0;0;1;0;0;0;0;51;12;;
Xanxerê;4219507;CEMEI CANTINHO FELIZ;42119324;1;0;1;0;0;0;0;1;0;0;0;1;83;9;-26.8748597;-52.3979483
Xaxim;4219705;CEIM MARIO FERRAZZO;42119359;1;0;1;0;0;0;1;0;0;0;0;1;69;16;-26.9528951;-52.5232275
Imaruí;4207205;CEIM HERCULANO VICENTE LUIZ;42119383;2;0;1;0;0;0;0;1;0;0;0;0;95;9;-28.3445131;-48.815465
Jardinópolis;4208955;CEI VALMOR DOMINGOS ALBERTI;42119405;1;0;1;0;0;0;0;1;0;0;0;1;89;15;-26.72336017;-52.85936158
Itajaí;4208203;SERVICO NACIONAL DE APRENDIZAGEM COMERCIAL - SENAC DE ITAJAI;42119430;1;0;1;0;0;0;1;0;0;0;0;0;243;39;-26.91023;-48.66413333
Porto União;4213609;SERVICO NACIONAL DE APRENDIZAGEM COMERCIAL - SENAC PORTO UNIAO;42119448;1;0;1;0;0;0;1;0;0;0;0;1;203;26;-26.24156167;-51.0868
Rio do Sul;4214805;CEI NAVEGANTES;42119499;1;0;1;0;0;0;1;1;0;0;0;1;87;8;-27.1897231;-49.605076
Palhoça;4211900;EB PROFª ADRIANA WEINGARTNER;42119502;1;0;1;0;0;0;0;1;0;0;0;0;696;29;-27.64486384;-48.68727189
São José;4216602;FUND CATARINENSE DE ED ESPECIAL FCEE;42119510;1;0;1;0;0;0;1;0;0;0;0;1;;;-27.58249;-48.61586
São José;4216602;COLEGIO ALPHA OBJETIVO;42119529;1;0;1;0;0;0;1;0;0;0;0;1;422;36;-27.59767;-48.61022
Angelina;4200903;APAE - ANGELINA;42119545;1;0;1;0;0;0;1;0;0;0;0;1;;;-27.58340833;-48.98341333
Biguaçu;4202305;ESCOLA ESPECIAL LEANDRO DE AZEVEDO;42119553;1;0;1;0;0;0;1;0;0;0;0;0;;;-27.49587;-48.65406
Florianópolis;4205407;ASSOCIACAO CATARINENSE PARA INTEGRACAO DO CEGO - ACIC;42119588;1;0;1;0;0;0;1;0;0;0;0;1;;;-27.54759357;-48.49613649
Palhoça;4211900;APAE DE PALHOCA CAESP;42119600;1;0;1;0;0;0;1;0;0;0;0;0;;;-27.65572703;-48.66786361
Paulo Lopes;4212304;CAESP ALEXSANDRO VIRGILIO RAUPP;42119618;1;0;1;0;0;0;0;0;1;0;0;0;;;;
Santo Amaro da Imperatriz;4215703;CAESP SANTO AMARO DA IMPERATRIZ;42119626;1;0;1;0;0;0;1;0;0;0;0;0;;;-27.68739675;-48.77847642
Orleans;4211702;CAESP LAR DA ESPERANCA;42119677;1;0;1;0;0;0;1;0;0;0;0;0;;;-28.35482587;-49.29300944
Criciúma;4204608;CAESP CAMINHO DA LUZ CRICIUMA;42119707;1;0;1;0;0;0;1;0;0;0;0;1;;;-28.70136812;-49.39454114
Criciúma;4204608;IEE DIOMICIO FREITAS ASSOC PESTALOZZI DE CRICIUMA;42119715;1;0;1;0;1;0;1;0;0;0;0;1;;;-28.68336672;-49.37915926
Içara;4207007;CAESP SONHO DOURADO;42119723;1;0;1;0;1;0;1;0;0;0;0;0;;;-28.71992062;-49.29735071
Morro da Fumaça;4211207;CAESP MORRO DA FUMACA;42119740;1;0;1;0;0;0;1;0;0;0;0;1;;;-28.64889345;-49.20633741
Nova Veneza;4211603;CAESP ANGELICA DAL SASSO BORTOLUZZI;42119758;1;0;1;0;0;0;1;0;0;0;0;1;;;-28.64307572;-49.50392642
Siderópolis;4217600;CAESP DE SIDEROPOLIS - ESC ESPECIAL RENASCER;42119766;1;0;1;0;0;0;1;0;0;0;0;0;;;-28.59570982;-49.42516049
Urussanga;4219002;CAESP SANTA RITA DE CASSIA;42119774;1;0;1;0;0;0;1;0;0;0;0;0;;;-28.52403584;-49.32241025
Joinville;4209102;ASSOC JOINVILENSE INTEG DO DEF VISUAL;42119782;1;0;1;0;0;0;1;0;0;0;0;1;;;-26.34699;-48.85016
Joinville;4209102;ASSOC DE AMIGOS DO AUTISTA;42119790;1;0;1;0;0;0;1;0;0;0;0;1;;;-26.2648;-48.84924
Barra Velha;4202107;ESC ESPECIAL BRILHO DO SOL FLAVIO Q BORGES;42119804;1;0;1;0;0;0;1;0;0;0;0;0;;;-26.6510895;-48.6895762
Joinville;4209102;INST EDUC ESP PROFª LIA R S J DE SANTIS;42119812;1;0;1;0;0;0;1;0;0;0;0;1;;;-26.30482;-48.83244
Rio do Sul;4214805;ESC RECANTO ALEGRE;42119847;1;0;1;0;0;0;1;0;0;0;0;1;;;-27.21328581;-49.64591182
Presidente Getúlio;4214003;ESCOLA ESPECIAL FLOR DA ESPERANCA;42119855;1;0;1;0;0;0;1;0;0;0;0;0;;;-27.04782;-49.6188482
Taió;4217808;APAE DE TAIO;42119863;1;0;1;0;0;0;1;0;0;0;0;0;;;;
Trombudo Central;4218608;ESCOLA MISSAO DE AMOR;42119901;1;0;1;0;0;0;1;0;0;0;0;1;;;-27.2961201;-49.7857594
Anita Garibaldi;4201000;ESC ESPECIAL CANTINHO DOS SONHOS;42119928;1;0;1;0;0;0;1;0;1;0;0;1;;;-27.6909373;-51.1293269
Bom Jardim da Serra;4202503;APAE DE BOM JARDIM DA SERRA;42119936;1;0;1;0;0;0;1;0;0;0;0;1;;;;
Campo Belo do Sul;4203402;ESC ESPECIAL CANTINHO DO CEU;42119944;1;0;1;0;0;0;1;0;0;0;0;0;;;-27.9006177;-50.7590806
Curitibanos;4204806;ESCOLA ESPECIAL HUGO MIGUEL SULZBACH;42119952;1;0;1;0;0;0;0;1;0;0;0;1;;;-27.30009799;-50.58643964
Lages;4209300;ESCOLA DE SURDOS BEM ME QUER;42119960;1;0;1;0;0;0;1;0;0;0;0;1;;;-27.8226404;-50.3180248
São Joaquim;4216503;APAE DE SAO JOAQUIM;42119987;1;0;1;0;1;0;1;0;0;0;0;1;;;;
Urubici;4218905;ESC PE JOSE GONCALVES ESPINDOLA;42119995;1;0;1;0;0;0;1;0;0;0;0;1;;;-28.0120578;-49.5951144
Itaiópolis;4208104;CENTRO DE ATENDIMENTO EDUCACIONAL ESPECIALIZADO IRMA TEONILIA;42120004;1;0;1;0;1;0;0;0;1;0;0;1;;;-26.33112937;-49.90825244
Mafra;4210100;ESC ESPECIAL IRMA INES;42120012;1;0;1;0;0;0;0;1;0;0;0;1;;;-26.11802682;-49.79833506
Monte Castelo;4211108;ESC ESPECIAL NS APARECIDA;42120020;1;0;1;0;0;0;1;0;0;0;0;1;;;-26.45839;-50.23627667
Papanduva;4212205;ESCOLA ESPECIAL RAIO DE SOL - APAE DE PAPANDUVA;42120039;1;0;1;0;0;0;1;0;0;0;0;0;;;-26.41396292;-50.13695539
Capinzal;4203907;ESCOLA ESPECIAL WANDA MEYER;42120055;1;0;1;0;0;0;0;1;0;0;0;0;;;-27.342573;-51.6085184
Campos Novos;4203600;CAESP MENINO DEUS - APAE DE CAMPOS NOVOS;42120063;1;0;1;0;0;0;1;0;0;0;0;1;;;;
Joaçaba;4209003;CAESP - CENTRO DE ATENDIMENTO EDUCACIONAL ESPECIALIZADO- FREI BRUNO;42120071;1;0;1;0;0;0;1;0;0;0;0;1;;;-27.17933167;-51.51439833
Joaçaba;4209003;CAESP - CENTRO EDUCACIONAL ESPECIALIZADO EM EDUCACAO ESPECIAL - APAS;42120080;1;0;1;0;0;0;1;0;0;0;0;1;;;-27.17389266;-51.50404496
Concórdia;4204301;CENTRO DE ATENDIMENTO EDUCACIONAL ESPECIALIZADO - CAESP;42120101;1;0;1;0;0;0;0;1;0;0;0;1;;;-27.2203353;-52.0234088
Irani;4207809;ESCOLA ESP ARCO IRIS;42120110;1;0;1;0;0;0;1;0;0;0;0;1;;;;
Coronel Freitas;4204400;ESC ESPECIAL DE CORONEL FREITAS - APAE;42120152;1;0;1;0;0;0;0;1;0;0;0;1;;;-26.89964905;-52.70096975
Chapecó;4204202;APAE ESC RECANTO DA ESPERANCA;42120160;1;0;1;0;1;0;0;1;0;0;0;1;;;-27.12029483;-52.61420075
Modelo;4210902;CAESP ESPECIAL MUNDINHO FELIZ;42120179;1;0;1;0;0;0;0;1;0;0;1;0;;;-26.7806779;-53.05389707
Palmitos;4212106;ESCOLA ESPECIAL PROFª CELIA M S LUCCA;42120187;1;0;1;0;1;0;0;1;0;0;0;0;;;-27.07135667;-53.16266
Pinhalzinho;4212908;APAE DE PINHALZINHO-SC - CAESP PROFESSORA IVONE;42120195;1;0;1;0;1;0;0;1;0;0;0;1;;;-26.84373838;-52.98899963
Quilombo;4214201;CAESP PAULO FREIRE;42120209;1;0;1;0;0;0;0;1;0;0;0;1;;;-26.72045833;-52.71797833
São Carlos;4216008;ESC ESPECIAL PROFª MARCIA;42120217;1;0;1;0;0;0;1;1;0;0;0;1;;;-27.0765849;-53.004089
São Lourenço do Oeste;4216909;ESC ESPECIAL NS DAS GRACAS;42120225;1;0;1;0;1;0;1;0;0;0;0;1;;;-26.35755196;-52.8478886
Campo Erê;4203501;ESCOLA ESPECIAL CAMPO ERE;42120241;1;0;1;0;0;0;0;1;0;0;0;1;;;-26.3996042;-53.0895921
Cunha Porã;4204707;ESCOLA ESPECIAL RENASCER;42120250;1;0;1;0;0;0;1;0;0;0;0;1;;;-26.88892;-53.16296
Descanso;4204905;ESC ESPECIAL MAURICIO DALLA VECCHIA-CAESP-APAE DE DESCANSO;42120268;1;0;1;0;0;0;0;1;0;0;0;1;;;-26.81993357;-53.50935671
Guaraciaba;4206405;ESCOLA ESPECIAL SONHO MEU;42120276;1;0;1;0;0;0;1;0;0;0;0;0;;;-26.59945;-53.51745
Itapiranga;4208401;ESCOLA ESPECIAL IRENE SCHROEDER;42120292;1;0;1;0;0;0;1;0;0;0;0;1;;;;
Iporã do Oeste;4207650;ASSOCIACAO DE PAIS E AMIGOS DOS EXCEPCIONAIS APAE;42120306;1;0;1;0;0;0;1;0;0;0;0;1;;;-26.98958;-53.53608
Maravilha;4210506;CAESP MARISOL;42120314;1;0;1;0;0;0;0;1;0;0;0;1;;;-26.77116377;-53.18622842
São José do Cedro;4216701;CAESP VIVIANE;42120330;1;0;1;0;1;0;1;0;0;0;0;1;;;-26.4520203;-53.4951444
São Miguel do Oeste;4217204;ESC ESPECIAL CAMINHO ALTERNATIVO;42120349;1;0;1;0;1;0;0;1;0;0;0;1;;;;
São José;4216602;APAE DE SAO JOSE;42120357;1;0;1;0;0;0;1;0;0;0;0;1;;;-27.6167641;-48.6431233
Balneário Camboriú;4202008;ESCOLA ESPECIAL TEMPO FELIZ APAE;42120365;1;0;1;0;0;0;1;0;0;0;0;1;;;-26.99939;-48.64255
Camboriú;4203204;ESC ESPECIAL ALEGRIA DE VIVER;42120373;1;0;1;0;0;0;1;0;0;0;0;0;;;;
Navegantes;4211306;ESCOLA ESPECIAL DE NAVEGANTES;42120381;1;0;1;0;0;0;1;0;0;0;0;0;;;-26.89405;-48.65442
Itajaí;4208203;CAESP - WALDYR BENVENUTTI - APAE DE ITAJAI;42120390;1;0;1;0;0;0;1;0;0;0;0;1;;;-26.9125;-48.65846
Itajaí;4208203;INST DE FONOAUDIOLOGIA UNIVALI;42120403;1;0;1;0;0;0;1;0;0;0;0;0;;;;
Itajaí;4208203;CIEP VOVO BIQUINHA;42120411;1;0;1;0;0;0;1;0;0;0;0;1;;;-26.91339;-48.66364
Penha;4212502;CAESP HENNY COELHO - APAE DE PENHA;42120420;1;0;1;0;0;0;1;0;0;0;0;0;;;-26.78324;-48.63263
Balneário Piçarras;4212809;ESC ESPECIAL DEUS MENINO;42120438;1;0;1;0;0;0;1;0;0;0;0;0;;;-26.7744;-48.6774
Porto Belo;4213500;ESC ESPECIAL ENSINA ME A VIVER;42120446;1;0;1;0;0;0;0;1;0;0;0;1;;;-27.15329;-48.54001
Rio das Antas;4214409;EEB ESPECIAL MEU RECANTO;42120497;1;0;1;0;0;0;1;0;0;0;0;0;;;-26.89672937;-51.07419989
Santa Cecília;4215505;ESC ESP WALMOR ADELMO ELY;42120519;1;0;1;0;1;0;1;0;0;0;0;1;;;-26.96525272;-50.42246237
Videira;4219309;ESC ESPECIAL TIA ANA;42120527;1;0;1;0;0;0;1;0;0;0;0;1;;;-26.9964621;-51.1608443
Araranguá;4201406;ESCOLA ESPECIAL JOAO KRAES CAMPOS;42120535;1;0;1;0;0;0;1;0;0;0;0;1;;;-28.93040245;-49.47819924
Meleiro;4210803;ESC ESPECIAL DE MELEIRO;42120551;1;0;1;0;0;0;1;0;0;0;0;1;;;-28.82976416;-49.63409553
Santa Rosa do Sul;4215653;ESC ESPECIAL SANTA ROSA DO SUL;42120578;1;0;1;0;1;0;1;0;0;0;0;0;;;-29.13315;-49.70926
Sombrio;4217709;ESC ESPECIAL APAE;42120586;1;0;1;0;0;0;1;0;0;0;0;1;;;-29.10668117;-49.62403656
Timbé do Sul;4218103;APAE DE TIMBE DO SUL;42120594;1;0;1;0;0;0;1;1;0;0;0;0;;;-28.83029545;-49.8446884
Turvo;4218806;APAE DE TURVO;42120608;1;0;0;0;1;0;1;0;0;0;0;1;;;-28.9309871;-49.68088
Brusque;4202909;ASSOCIACAO DE PAIS E AMIGOS DOS EXCEPCIONAIS - INSTITUTO DE EDUCACAO SANTA INES E CLINICA UNIDUNITE;42120616;1;0;1;0;0;0;1;0;0;0;0;0;;;-27.1034412;-48.9256693
Canelinha;4203709;CAESP SANTANA;42120624;1;0;1;0;0;0;1;0;0;0;0;1;;;;
Guabiruba;4206306;ESCOLA ESPECIAL PROFESSOR ARTHUR WIPPEL;42120632;1;0;1;0;0;0;0;1;0;0;0;0;;;-27.07766837;-48.98990796
São João Batista;4216305;ESC ESPECIAL INST BENTA ALVES DE AZEVEDO;42120659;1;0;1;0;0;0;0;0;1;0;0;1;;;-27.27262285;-48.84360141
Xanxerê;4219507;ESC ESPECIAL HELENA ADAMS KELLER;42120713;1;0;1;0;0;0;1;0;0;0;0;1;;;-26.877062;-52.4167991
Xaxim;4219705;ESC ESPECIAL MARLENE STIEVEN- APAE DE XAXIM;42120721;1;0;1;0;0;0;1;1;0;0;0;1;;;-26.96063993;-52.54255083
Major Vieira;4210308;CAESP-CENTRO DE ATENDIMENTO EDUCACIONAL ESPECIALIZADO DE MAJOR VIEIRA;42120730;1;0;1;0;0;0;1;0;0;0;0;1;;;-26.36551333;-50.32454667
Garopaba;4205704;CAESP APAE RENASCER;42120772;1;0;1;0;0;0;0;1;0;0;0;1;;;;
Imaruí;4207205;CAESP ARCO IRIS;42120780;1;0;1;0;0;0;1;0;0;0;0;0;;;;
Laguna;4209409;ESC ESPECIAL SOLAR DA TERNURA;42120799;1;0;1;0;0;0;1;0;0;0;0;0;;;-28.48856;-48.77096
Rio Negrinho;4215000;APAE RIO NEGRINHO;42120829;1;0;1;0;0;0;1;0;0;0;0;0;;;-26.24077327;-49.50865115
São Bento do Sul;4215802;CAESP GIRASSOL;42120837;1;0;1;0;0;0;1;0;0;0;0;0;;;;
Blumenau;4202404;ESC ESPECIAL PROFª ESTELLA M CAROPRESO;42120853;1;0;1;0;0;0;1;0;0;0;0;1;;;-26.90097808;-49.09031656
Indaial;4207502;APAE DE INDAIAL;42120861;1;0;1;0;1;0;1;0;0;0;0;1;;;-26.897731;-49.2256782
Pomerode;4213203;CENTRO DE ATENDIMENTO EDUCACIONAL ESPECIALIZADO EGON KUHN;42120870;1;0;1;0;0;0;0;1;0;0;0;1;;;-26.71765103;-49.17384807
Gaspar;4205902;ASSOC DE PAIS E AMIGOS DOS EXCEPCIONAIS;42120888;1;0;1;0;0;0;0;1;0;0;0;1;;;-26.93708667;-48.93660833
Timbó;4218202;ESCOLA ESPECIAL INTEGRADA- CAESP DE TIMBO;42120900;1;0;1;0;0;0;1;1;0;0;0;1;;;-26.8102189;-49.2896251
Bom Retiro;4202602;ESCOLA ESPECIAL PADRE ADRIANO HOCH;42120926;1;0;1;0;0;0;1;0;0;0;0;0;;;-27.7937852;-49.4877938
Xanxerê;4219507;SESC ESCOLA;42120934;1;0;1;0;0;0;0;1;0;0;0;1;170;8;-26.8801994;-52.4121341
Canoinhas;4203808;CENTRO DE ATENDIMENTO ESPECIALIZADO SANTA CRUZ;42120942;1;0;1;0;0;0;0;1;0;0;0;1;;;;
Porto União;4213609;CAESP - CENTRO DE ATENDIMENTO EDUCACIONAL ESPECIALIZADO - APAE DE PORTO UNIAO;42120969;1;0;1;0;0;0;1;0;0;0;0;0;;;-26.23510667;-51.07917167
Porto União;4213609;APADAF;42120977;1;0;1;0;0;0;1;0;0;0;0;0;;;-26.23769711;-51.07927226
Rio do Campo;4214508;ESC ESPECIAL FLOR DO CAMPO;42120993;1;0;1;0;0;0;1;0;0;0;0;1;;;-26.95012348;-50.14006954
Schroeder;4217402;CEIM EZELIA CORREIA LOMBARDI;42121000;1;0;1;0;0;0;0;1;0;0;0;1;93;10;-26.4488499;-49.0229154
Cordilheira Alta;4204350;PROGRAMA ED ARTE ESPORTE E CIDADANIA;42121019;1;0;1;0;0;0;1;0;0;0;0;1;;;;
Pinhalzinho;4212908;SESI SC - PINHALZINHO;42121035;1;0;1;0;0;0;1;0;0;0;0;0;51;2;-26.84568116;-52.98568534
Agrolândia;4200200;CENTRO DE EDUCACAO COMPLEMENTAR EWALD BRUNO JULIUS KRESS;42121060;1;0;1;0;0;0;1;1;0;0;0;0;;;-27.4129683;-49.83398
Cocal do Sul;4204251;IEI PROF LENITA IZABEL DA SILVA;42121108;1;0;1;0;0;0;1;0;0;0;0;1;104;16;-28.59373175;-49.33325391
Pouso Redondo;4213708;CEI ANJO DA GUARDA;42121116;1;0;1;0;0;0;1;0;0;0;0;1;127;18;-27.25155703;-49.93417804
São Bernardino;4215752;CENTRO DE ATENDIMENTO ESPECIALIZADO SAO BERNARDINO;42121124;1;0;1;0;0;0;0;1;0;0;0;0;;;;
Ituporanga;4208500;ASSOCIACAO DAS IRMAS FRANCISCANAS DE SAO JOSE - ESCOLA TECNICA BOM JESUS;42121132;1;0;1;0;0;0;1;0;0;0;0;1;67;9;-27.41558167;-49.60037167
São José do Cedro;4216701;CRECHE MUNICIPAL SAO DOMINGOS;42121140;1;0;1;0;0;0;0;1;0;0;0;1;106;7;-26.44560556;-53.51007634
Braço do Norte;4202800;CEI ISAURA ULIANO SOMBRIO;42121159;1;0;1;0;0;0;1;0;0;0;0;1;229;9;-28.273652;-49.1435479
Itá;4208005;CRECHE MUNICIPAL ALECIR TREVISOL;42121167;1;0;1;0;1;0;1;0;0;0;0;0;118;2;-27.26891167;-52.35490333
São Bento do Sul;4215802;CEIM VERA LUCIA DRECHSLER KITZBERGER;42121175;1;0;1;0;0;0;1;0;0;0;0;1;112;10;-26.2098589;-49.4081043
São José;4216602;CENTRO EDUC CISNE BRANCO;42121183;1;0;1;0;0;0;1;0;0;0;0;0;64;5;;
Joinville;4209102;COLEGIO POSITIVO JOINVILLE;42121191;1;0;1;0;0;0;1;0;0;0;0;1;1187;67;-26.30508;-48.85743
Itajaí;4208203;CEI OMAR LUIZ MACAGNAN;42121205;1;0;1;0;0;0;0;0;1;0;0;1;160;14;-26.91551557;-48.69417818
Itajaí;4208203;CEDIN LUCY CANZIANI;42121213;1;0;1;0;0;0;1;0;0;0;0;1;;;-26.91213089;-48.68064866
Itajaí;4208203;CEI ANGELA DIAS RAMOS NEVES;42121221;1;0;1;0;0;0;0;1;0;0;0;1;188;14;-26.9024641;-48.6873772
Guaramirim;4206504;EMEF E PE QUATI;42121256;1;0;1;0;0;0;0;1;0;0;0;1;59;6;-26.4463787;-48.9078478
Três Barras;4218301;CENTRO EDUC RAIO DE SOL;42121329;1;0;1;0;0;0;0;1;0;0;0;1;85;10;-26.10773327;-50.32142708
Iporã do Oeste;4207650;CENTRO INTEGRADO DE ENSINO RURAL - CIER;42121345;2;0;1;0;0;0;0;1;0;0;0;1;85;13;-26.979615;-53.43837833
Indaial;4207502;EB PROFESSORA URSULA KROEGER;42121353;1;0;1;0;0;0;1;0;0;0;0;1;593;33;-26.88719593;-49.26115609
Jaraguá do Sul;4208906;EMEB RIBEIRAO MOLHA;42121361;1;0;1;0;0;0;1;0;0;0;0;1;188;19;-26.527035;-49.0753421
Indaial;4207502;EB MULDE BAIXA;42121370;1;0;1;0;0;0;0;1;0;0;0;1;175;20;-26.8493333;-49.2302124
Jaraguá do Sul;4208906;EMEB MAX SCHUBERT;42121388;1;0;1;0;0;0;1;0;0;0;0;0;636;32;-26.3641264;-49.1305212
Joinville;4209102;CENTRO EDUCACIONAL MAE NATUREZA;42121396;1;0;1;0;0;0;1;0;0;0;0;1;115;14;-26.32947;-48.83747
Capinzal;4203907;E M BERNARDO MORO SOBRINHO;42121400;1;0;1;0;0;0;1;0;0;0;0;1;445;26;-27.36031822;-51.60879093
Videira;4219309;COLEGIO SUPERACAO;42121442;1;0;1;0;0;0;1;0;0;0;0;0;396;32;-26.9917923;-51.1765164
Ponte Alta do Norte;4213351;CEME RECANTO DA CRIANCA;42121469;1;0;1;0;0;0;1;0;0;0;0;0;199;12;-27.16593065;-50.47266754
Araranguá;4201406;CEI TIA VALDA;42121574;1;0;1;0;0;0;0;1;0;0;0;0;199;13;-28.97390764;-49.52816806
Araranguá;4201406;CEI SAO JOSE;42121590;1;0;1;0;0;0;1;0;0;0;0;1;173;14;-28.9463178;-49.46452718
Araranguá;4201406;CEI LEDA DA SILVA MACHADO;42121604;1;0;1;0;0;0;1;0;0;0;0;0;110;15;-28.94475833;-49.487645
Tangará;4217907;CRECHE MUN JANE MARIA ARCARI FILIPPIN;42121612;1;0;1;0;0;0;0;1;0;0;0;0;146;14;-27.0975836;-51.2431213
São José do Cedro;4216701;CRECHE PINGO DE GENTE;42121655;1;0;1;0;0;0;0;1;0;0;0;1;156;14;-26.44543064;-53.50410819
Ilhota;4207106;CEI LARISSA MARINEIA MARTENDAL SCHWAMBACH;42121663;2;0;1;0;0;0;0;0;1;0;0;1;14;3;-26.82182683;-48.95533253
Agronômica;4200309;CEI BEATRIZ LOPES DA SILVA;42121671;1;0;1;0;0;0;1;1;0;0;0;1;92;11;-27.26510304;-49.71072149
Caçador;4203006;EEB WANDA KRIEGER GOMES;42121680;1;0;1;0;0;0;1;0;0;0;0;0;460;42;-26.79584352;-50.9881975
Videira;4219309;SESI SC - VIDEIRA;42121744;1;0;1;0;0;0;1;0;0;0;0;0;466;37;-27.01245667;-51.15294333
Bombinhas;4202453;EB MUN PEQUENO PRINCIPE;42121779;1;0;1;0;0;0;0;1;0;0;0;1;579;37;-27.15636;-48.50279
São Bento do Sul;4215802;EB MUN SOPHIA SCHWEDLER;42121787;1;0;1;0;0;0;1;0;0;0;0;1;346;19;-26.19670827;-49.39473595
Florianópolis;4205407;NEIM VICENTINA MARIA DA COSTA LAURINDO;42121795;1;0;1;0;0;0;0;1;0;0;0;1;124;10;-27.4674604;-48.4666803
Florianópolis;4205407;NEIM CAETANA MARCELINA DIAS;42121809;1;0;1;0;0;0;1;0;0;0;0;0;273;22;-27.70167864;-48.53625757
Florianópolis;4205407;NEIM FERMINIO FRANCISCO VIEIRA;42121817;1;0;1;0;0;0;1;1;0;0;0;0;307;30;-27.6030762;-48.5041939
Florianópolis;4205407;NEIM FRANCISCA IDALINA LOPES;42121825;1;0;1;0;0;0;0;1;0;0;0;0;145;19;-27.703252;-48.5059727
Florianópolis;4205407;NEIM MORRO DA QUEIMADA;42121833;1;0;1;0;0;0;1;0;0;0;0;1;91;19;-27.60976723;-48.5440388
Florianópolis;4205407;NEIM ALMIRANTE LUCAS ALEXANDRE BOITEUX;42121841;1;0;1;0;0;0;1;0;0;0;0;0;239;22;-27.5955584;-48.542804
Florianópolis;4205407;NEIM ARMACAO;42121850;1;0;1;0;0;0;0;1;0;0;0;0;231;17;-27.7525589;-48.5110833
Florianópolis;4205407;NEIM STELLA MARIS CORREA CARNEIRO;42121868;1;0;1;0;0;0;1;0;0;0;0;1;277;21;-27.397936;-48.4281639
Turvo;4218806;ESCOLA MUN SAO LUIZ;42121876;1;0;1;0;0;0;1;0;0;0;0;1;126;10;-28.92245104;-49.66374113
Rio do Sul;4214805;CE PROFESSORA DORES JANKE STUPP;42121892;1;0;1;0;0;0;1;1;0;0;0;1;267;21;-27.2333683;-49.6451647
Maracajá;4210407;ESCOLA DE EDUCACAO BASICA MUNICIPAL 12 DE MAIO;42121906;1;0;1;0;0;0;0;1;0;0;0;1;669;34;-28.85741682;-49.45402097
Blumenau;4202404;CEI DR ARAO REBELLO;42121922;1;0;1;0;0;0;1;0;0;0;0;1;201;32;-26.95219025;-49.13356085
Blumenau;4202404;CEI ROBERT RUDOLPH BARTH;42121930;1;0;1;0;0;0;1;0;0;0;0;1;209;29;-26.8536533;-49.1040719
Blumenau;4202404;CEI MAX SCHEIDEMANTEL;42121949;1;0;1;0;0;0;1;0;0;0;0;1;97;12;-26.88238564;-49.0728107
Joinville;4209102;ESCOLA MUNICIPAL PROFESSORA ELADIR SKIBINSKI;42121973;1;0;1;0;0;0;0;1;0;0;0;1;915;32;-26.24839;-48.79682
Joinville;4209102;ESCOLA MUNICIPAL PAULINE PARUCKER;42121981;1;0;1;0;0;0;1;0;0;0;0;1;1032;42;-26.3683;-48.82323
Concórdia;4204301;EBM ANNA ZAMARCHI COLDEBELLA;42121990;1;0;1;0;0;0;0;1;0;0;0;1;347;28;-27.19620833;-52.11199833
Presidente Getúlio;4214003;CENTRO DE EDUCACAO INFANTIL MUNICIPAL CANTINHO FELIZ;42122007;1;0;1;0;0;0;0;1;0;0;0;1;219;16;-27.03708354;-49.59851334
Presidente Getúlio;4214003;CENTRO DE EDUCACAO INFANTIL MUNICIPAL PINGO DE GENTE;42122015;1;0;1;0;0;0;0;1;0;0;0;1;184;13;-27.03384582;-49.636413
Presidente Getúlio;4214003;CENTRO DE EDUCACAO INFANTIL MUNICIPAL ADELINA CLARA HESS DE;42122023;1;0;1;0;0;0;0;0;1;0;0;1;323;26;-27.0566027;-49.62962265
Concórdia;4204301;EBM WALDEMAR PFEIFFER;42122031;1;0;1;0;0;0;0;1;0;0;0;1;541;39;-27.23343333;-52.04477
Urussanga;4219002;CENTRO EDUCACIONAL INFANTIL ELIAS BIZ;42122040;1;0;1;0;0;0;0;1;0;0;0;1;76;21;-28.51440809;-49.32000077
Romelândia;4215208;CRECHE PINGO DE GENTE;42122058;1;0;1;0;0;0;0;1;0;0;0;0;24;9;-26.66815259;-53.3172025
Petrolândia;4212700;CEI CANTINHO DE LUZ;42122066;1;0;1;0;0;0;1;0;0;0;0;0;43;8;-27.53530344;-49.69753428
Romelândia;4215208;CRECHE JEITINHO DE SER;42122074;1;0;1;0;0;0;0;1;0;0;0;0;60;15;-26.66831058;-53.31735758
Santa Terezinha;4215679;PRE ESCOLAR PEQUENO PRINCIPE;42122082;2;0;1;0;0;0;0;1;0;0;0;1;30;5;-26.7378405;-50.07848566
Balneário Camboriú;4202008;C E M ALFREDO DOMINGOS DA SILVA;42122139;1;0;1;0;0;0;1;0;0;0;0;1;501;20;-27.01633;-48.60256
Criciúma;4204608;EMEB MARIA ANGELICA PAULO;42122180;2;0;1;0;0;0;1;0;0;0;0;1;123;12;-28.720965;-49.36158167
Criciúma;4204608;EMEB JOSE ROSSO;42122198;2;0;1;0;0;0;0;1;0;0;0;1;471;27;-28.78402958;-49.36741408
Rio Negrinho;4215000;CMEI ARCO IRIS;42122260;1;0;1;0;0;0;1;0;0;0;0;1;69;14;-26.26509533;-49.51498845
Maravilha;4210506;CEI CINDERELA;42122309;1;0;1;0;0;0;0;1;0;0;0;1;100;10;-26.77400068;-53.17417808
São João do Oeste;4216255;CEI JESUS MENINO;42122317;1;0;1;0;0;0;0;1;0;0;0;1;99;8;-27.0992;-53.5913
Chapecó;4204202;CEIM PROJETO MINHA GENTE;42122325;1;0;1;0;0;0;0;0;1;0;0;1;309;20;-27.07725661;-52.63946524
Urussanga;4219002;ESC MUN PROF ERNESTO CESAR MARIOT;42122457;1;0;1;0;0;0;1;0;0;0;0;0;71;8;-28.53518054;-49.29478727
Joinville;4209102;ESCOLA MUNICIPAL PREFEITO JOAQUIM FELIX MOREIRA;42122538;1;0;1;0;0;0;1;0;0;0;0;1;812;29;-26.34392;-48.77281
Araquari;4201307;ESCOLA MUNICIPAL ROSALVO FERNANDES;42122546;1;3;1;0;0;0;1;0;0;0;0;0;798;26;;
Brusque;4202909;CEI PONTA RUSSA;42122554;1;0;1;0;0;0;1;0;0;0;0;0;120;8;-27.13866;-48.89142
Brusque;4202909;CEI LIMEIRA TIA ANA;42122562;1;0;1;0;0;0;1;0;0;0;0;1;275;18;-27.08467389;-48.85726971
Brusque;4202909;CEI RAIO DE SOL;42122570;1;0;1;0;0;0;1;0;0;0;0;1;216;20;-27.13195457;-48.91062093
Xanxerê;4219507;CEMEI NOVO HORIZONTE;42122600;1;0;1;0;0;0;0;1;0;0;0;1;68;7;-26.8865948;-52.3872455
Xanxerê;4219507;CEMEI FAVO DE MEL;42122619;1;0;1;0;0;0;0;1;0;0;0;1;61;6;-26.8873903;-52.4103691
Xanxerê;4219507;CEMEI PINGO DE GENTE;42122627;1;0;1;0;0;0;0;1;0;0;0;1;47;7;-26.8716;-52.4119473
Correia Pinto;4204558;ESCOLA ITINERANTE PROFESSORA ANA MARIA RODRIGUES COELHO;42122635;2;0;1;0;0;0;0;1;0;0;0;1;59;11;-27.58831376;-50.36838776
Riqueza;4215075;CENTRO EDUCACIONAL NEDYR SPEZZATTO;42122651;2;0;1;0;0;0;0;1;0;0;0;1;125;13;-26.99603;-53.34411
Brunópolis;4202875;CENTRO DE EDUCACAO INFANTIL SOSSEGO DA MAMAE;42122660;2;0;1;0;0;0;0;1;0;0;0;0;41;5;-27.3313163;-50.7663281
Campos Novos;4203600;CEIM MENINO JESUS;42122686;2;0;1;0;0;0;0;1;0;0;0;1;31;4;;
Brunópolis;4202875;CRECHE MUNICIPAL CRIANCA FELIZ;42122694;1;0;1;0;0;0;1;0;0;0;0;1;77;11;-27.3117591;-50.8379445
Descanso;4204905;CENTRO DE EDUCACAO INFANTIL E ENSINO FUNDAMENTAL GETULIO VARGAS;42122716;1;0;1;0;0;0;1;0;0;0;0;1;251;18;-26.8304839;-53.5039068
Chapecó;4204202;CEIM CIRANDA DA CRIANCA;42122724;1;0;1;0;0;0;0;0;1;0;0;1;761;37;-27.09815833;-52.68550802
Chapecó;4204202;EB MUN JARDIM DO LAGO;42122732;1;0;1;0;0;0;0;1;0;0;0;1;1210;77;-27.0981345;-52.68648224
Chapecó;4204202;ESCOLA PARQUE CIDADA LEONEL DE MOURA BRIZOLA;42122740;1;0;1;0;0;0;0;1;0;0;0;1;351;31;-27.1010498;-52.592824
Monte Carlo;4211058;EEBM SONHO INFANTIL;42122759;1;0;1;0;0;0;1;0;0;0;0;0;377;15;-27.2153982;-50.9791213
Campo Alegre;4203303;CMEI CHAPEUZINHO VERMELHO;42122775;1;0;1;0;0;0;0;1;0;0;0;1;126;15;-26.0905123;-49.25824342
Matos Costa;4210704;CEI MUN SEMENTINHA DO SABER;42122791;1;0;1;0;0;0;1;0;0;0;0;1;50;7;-26.4703946;-51.1507597
Xanxerê;4219507;CEMEI CARROSSEL;42122813;1;0;1;0;0;0;0;1;0;0;0;1;98;8;-26.884494;-52.3872351
Criciúma;4204608;EMEB ANGELO DE LUCA;42122821;2;0;1;0;0;0;0;1;0;0;0;1;346;25;-28.73001559;-49.37606459
Criciúma;4204608;EMEB PE CARLOS WECKI;42122830;1;0;1;0;0;0;1;0;0;0;0;1;337;24;-28.69113011;-49.42227511
Criciúma;4204608;EMEB PE PAULO PETRUZZELLIS;42122848;1;0;1;0;0;0;1;0;0;0;0;1;810;47;-28.69920399;-49.39844574
Ascurra;4201703;CEI PROFESSORA ONORATA ZONTA DALFOVO;42122856;1;0;1;0;0;0;0;1;0;0;0;1;130;12;-26.9597807;-49.37812136
São Joaquim;4216503;EBM ATTILIA CECHINEL NEZI;42122864;2;0;1;0;0;0;0;1;0;0;0;1;121;15;-28.2948242;-49.9331512
São Bento do Sul;4215802;CEI MUN SONHO MEU;42122899;1;0;1;0;0;0;1;0;0;0;0;1;138;13;-26.2044651;-49.3938727
São José;4216602;ACAO SOCIAL SALTO DO MAROIM CEI FREI ANTONIO;42122902;1;0;1;0;0;0;1;1;0;0;0;1;193;8;-27.58528606;-48.71541375
Massaranduba;4210605;CEI MUNDO INFANTIL;42122910;1;0;1;0;0;0;0;0;1;0;0;0;104;12;-26.6135945;-49.0065136
Governador Celso Ramos;4206009;CEI PROFª LUCIA FRANCISCA SAGAS;42122937;1;0;1;0;0;0;0;1;0;0;0;1;142;16;;
Governador Celso Ramos;4206009;CEI PROFª DULCE GODINHO NAZARIO;42122945;1;0;1;0;0;0;0;1;0;0;0;0;82;8;-27.31657695;-48.5732959
Governador Celso Ramos;4206009;CEI PROF ROBERTO MANOEL CALLADO;42122953;1;0;1;0;0;0;0;1;0;0;0;0;148;12;-27.36669734;-48.55889206
Governador Celso Ramos;4206009;CEI MUN JULIA SAGAS;42122961;1;0;1;0;0;0;0;1;0;0;0;0;132;10;-27.33332079;-48.54557218
Videira;4219309;CENTRO MUNICIPAL DE EDUCACAO INFANTIL AMELIA ZANESCO PERETTI;42122996;1;0;1;0;0;0;0;1;0;0;0;0;145;10;-27.02406844;-51.15051106
Entre Rios;4205175;ESCOLA MUNICIPAL SANTA LUCIA;42123003;1;0;1;0;0;0;1;0;0;0;0;1;162;12;-26.7219268;-52.5645486
Guaramirim;4206504;CENTRO EDUCACIONAL MUNICIPAL PROFESSOR GUSTAVO TANK;42123020;1;0;1;0;0;0;1;1;0;0;0;1;233;15;-26.4591143;-49.0238103
Nova Itaberaba;4211454;EM SONHO INFANTIL;42123062;1;0;1;0;0;0;0;1;0;0;0;1;73;9;-26.939893;-52.8126424
Apiúna;4201257;EB SUBIDA;42123127;2;0;1;0;0;0;0;1;0;0;0;1;273;16;-27.10412333;-49.457515
Guabiruba;4206306;ESCOLA BASICA MUNICIPAL PADRE GERMANO BRANDT;42123135;1;0;1;0;0;0;1;1;0;0;0;1;348;22;-27.08440115;-49.01825455
Pomerode;4213203;EEBM PROF VIDAL FERREIRA;42123143;1;0;1;0;0;0;0;1;0;0;0;1;239;20;-26.7213094;-49.2038952
Concórdia;4204301;EBM CONCORDIA - CAIC;42123208;1;0;1;0;0;0;0;1;0;0;0;1;560;43;-27.23615455;-52.04141532
Tubarão;4218707;CEI FELICIANA CORREA DA SILVA;42123267;1;0;1;0;0;0;0;1;0;0;0;0;82;13;-28.4311563;-49.0172317
Itajaí;4208203;CENTRO EDUC PRE ESCOLAR ARTE BABY LTDA;42123283;1;0;1;0;0;0;1;0;0;0;0;1;39;5;-26.90381;-48.65868
Blumenau;4202404;COLEGIO CASTELO EIRELI EPP;42123291;1;0;1;0;0;0;1;0;0;0;0;1;695;39;-26.9256874;-49.121919
Biguaçu;4202305;EIEF KAAKUPE;42123313;2;2;1;0;0;0;0;1;0;0;0;0;53;8;;
Itajaí;4208203;COLEGIO CRISTAO AMAR;42123364;1;0;1;0;0;0;1;0;0;0;0;1;453;30;-26.91125;-48.68924
Itapema;4208302;COLEGIO UNIFICADO;42123372;1;0;1;0;0;0;1;0;0;0;0;1;584;24;-27.14358;-48.59627
Ibiam;4206751;CEI MUN JOSE ATILIO GRASSI;42123380;1;0;1;0;0;0;0;1;0;0;0;0;63;5;-27.178274;-51.2363815
Mafra;4210100;CEIM VILA NOVA;42123410;1;0;1;0;0;0;0;1;0;0;0;1;152;12;-26.14155833;-49.83124932
Balneário Barra do Sul;4202057;EM ADALZIZA LEONIDA DE SOUZA CUNHA;42123445;1;0;1;0;0;0;0;0;1;0;0;1;224;9;-26.4574046;-48.5982105
Criciúma;4204608;CEI AFASC URDA JOANA JOAQUIM;42123496;1;0;1;0;0;0;1;1;0;0;0;1;173;25;-28.69540208;-49.4285273
Criciúma;4204608;CEI AFASC MORADAS DA COLINA;42123500;1;0;1;0;0;0;1;1;0;0;0;1;76;11;-28.66585387;-49.39618981
São Ludgero;4217006;PE BOM RETIRO;42123550;2;0;1;0;0;0;0;1;0;0;0;1;18;1;-28.3554032;-49.1249229
Jaraguá do Sul;4208906;EMEB ATAYDE MACHADO;42123577;1;0;1;0;0;0;1;0;0;0;0;1;269;21;-26.47193543;-49.08073425
Itajaí;4208203;EB PEDRO PAULO REBELLO;42123585;1;0;1;0;0;0;1;0;0;0;0;1;819;39;-26.9118279;-48.698028
Sul Brasil;4217758;CMEI APRENDER BRINCANDO;42123593;1;0;1;0;0;0;1;0;0;0;0;1;125;12;-26.73862626;-52.96188651
Serra Alta;4217550;CEI PRIMEIROS PASSOS;42123607;1;0;1;0;0;0;0;1;0;0;0;1;116;18;-26.7320707;-53.0427023
Canoinhas;4203808;GEM PROFESSORA XEILA ELISABETE CORNELSEN;42123615;1;0;1;0;0;0;0;1;0;0;0;1;150;7;-26.18115667;-50.36609667
Joinville;4209102;ESCOLA NOVA GERACAO;42123631;1;0;1;0;0;0;1;0;0;0;0;1;167;16;-26.3241304;-48.8406937
Porto União;4213609;PATRICIA ELAINE KREUZBERG SILVA E CIA LTDA - ME;42123640;1;0;1;0;0;0;1;0;0;0;0;1;304;25;-26.23700839;-51.08416968
Itajaí;4208203;EB PROF MARIA ROSA HELENO SCHULTE;42123658;1;0;1;0;0;0;0;1;0;0;0;1;672;36;-26.8978258;-48.7389861
Caçador;4203006;EMEB TABAJARA;42123666;1;0;1;0;0;0;1;1;0;0;0;1;446;30;-26.7612117;-51.0194818
Laguna;4209409;CEI PADRE AUGUSTINHO;42123674;1;0;1;0;0;0;1;0;0;0;0;1;188;24;-28.46873799;-48.78284921
Criciúma;4204608;COLEGIO UNIVERSITARIO CRICIUMA LTDA;42123682;1;0;1;0;0;0;1;0;0;0;0;0;257;25;-28.68186957;-49.37398763
São Ludgero;4217006;COLEGIO EVOLUCAO;42123704;1;0;0;0;1;0;1;0;0;0;0;0;522;27;;
Salete;4215307;CENTRO EDUCACIONAL PREFEITO AFFONSO ROHDEN;42123747;1;0;1;0;0;0;0;1;0;0;0;0;146;14;-26.978075;-49.99351
Lages;4209300;COLEGIO OBJETIVO LAGES UNIDADE II;42123755;1;0;1;0;0;0;1;0;0;0;0;1;278;19;-27.81079195;-50.31091031
Palhoça;4211900;CETK - CENTRO DE EDUCACAO TEREZINHA KRAUTZ;42123763;1;0;1;0;0;0;0;1;0;0;0;0;354;22;;
Braço do Norte;4202800;CEI ADRIANA APARECIDA VIANA;42123810;1;0;1;0;0;0;1;0;0;0;0;1;154;7;-28.27775813;-49.16273911
Fraiburgo;4205506;EEF BAIRRO DAS NACOES;42123844;1;0;1;0;0;0;1;1;0;0;0;1;516;33;-27.02996167;-50.90695667
Cocal do Sul;4204251;IEI HELENA SAVI;42123852;1;0;1;0;0;0;1;0;0;0;0;1;54;10;-28.60361;-49.31389209
Araranguá;4201406;CEI GENTE INOCENTE;42123879;1;0;1;0;0;0;0;1;0;0;0;0;138;11;-28.96099124;-49.49884051
Imbuia;4207403;ESCOLA BASICA MUNICIPAL PROFESSORA UMBELINA LORENZI;42123909;1;0;1;0;0;0;1;0;0;0;0;1;439;23;-27.4990035;-49.4251517
São Bento do Sul;4215802;CEI MUN TRENZINHO MALUCO;42123941;1;0;1;0;0;0;1;0;0;0;0;1;87;11;-26.2695485;-49.3721204
Santo Amaro da Imperatriz;4215703;EB MUN PREF AUGUSTO ALTHOFF;42123950;1;0;1;0;0;0;0;1;0;0;0;1;235;25;-27.70845767;-48.80218813
Itajaí;4208203;CEI PROF MANOEL FERREIRA DE MIRANDA;42123968;1;0;1;0;0;0;0;1;0;0;0;1;90;10;-26.871399;-48.698861
Guabiruba;4206306;ESCOLA BASICA MUNICIPAL PROF CARLOS MAFFEZZOLLI;42123976;1;0;1;0;0;0;0;1;0;0;0;1;492;18;-27.06950698;-48.97257318
Águas Frias;4200556;CENTRO MUN ED INFANTIL AQUARELA;42123984;1;0;1;0;0;0;0;1;0;0;0;1;151;11;-26.8809693;-52.8656444
São Francisco do Sul;4216206;EB MUN ALVARO TANCREDO DIPPOLD;42123992;1;0;1;0;0;0;1;0;0;0;0;1;306;18;-26.25925098;-48.62101362
Fraiburgo;4205506;CEI BELA VISTA;42124034;1;0;1;0;0;0;1;1;0;0;0;1;160;16;-27.02563833;-50.93058833
Maravilha;4210506;CENTRO EDUC VER RAYMUNDO VEIT;42124131;1;0;1;0;0;0;0;1;0;0;0;1;574;34;-26.76202333;-53.17911833
Maravilha;4210506;CENTRO EDUC MONTEIRO LOBATO;42124140;1;0;1;0;0;0;0;1;0;0;0;1;220;21;-26.7671734;-53.1645174
Nova Erechim;4211405;ESCOLA REUNIDA MUNICIPAL PROFª LYDIA FRANZON DONDONI;42124166;1;0;1;0;0;0;0;1;0;0;0;1;322;15;-26.902441;-52.9025011
Videira;4219309;ESCOLA DE EDUCACAO BASICA MUNICIPAL CRIANCA DO FUTURO CAIC;42124212;1;0;1;0;0;0;0;1;0;0;0;0;685;26;-27.0245535;-51.1435682
Itajaí;4208203;CEDIN VERDE VALE;42124263;1;0;1;0;0;0;1;0;0;0;0;1;;;-26.9282023;-48.649394
Itajaí;4208203;CEDIN JACY DIAS RAMOS;42124271;1;0;1;0;0;0;1;0;0;0;0;1;;;-26.8880869;-48.6953105
Timbó;4218202;NUCLEO DE EDUCACAO INFANTIL PRIMEIROS PASSOS;42124280;1;0;1;0;0;0;0;1;0;0;0;1;168;17;-26.82237667;-49.25679
União do Oeste;4218855;ESCOLA REUNIDA MUNICIPAL ANGELO SOLETTI;42124352;1;0;1;0;0;0;0;1;0;0;0;1;182;14;-26.7622962;-52.8578694
Papanduva;4212205;PE CANTINHO DA ALEGRIA;42124360;1;0;1;0;0;0;0;0;1;0;0;0;187;10;-26.41129886;-50.14318071
Rio Negrinho;4215000;EMEB PREF HENRIQUE LIEBL;42124379;1;0;1;0;0;0;1;0;0;0;0;1;489;22;-26.24815673;-49.5339338
Araranguá;4201406;EB MUN JOAO MATIAS;42124387;1;0;1;0;0;0;1;0;0;0;0;0;480;24;-28.93220626;-49.46884635
Guaraciaba;4206405;CEIM PRIMEIROS PASSOS;42124433;1;0;1;0;0;0;1;0;0;0;0;1;175;9;-26.60131266;-53.52378908
Joinville;4209102;CAIC PROFESSOR MARIANO COSTA;42124450;1;0;1;0;0;0;1;0;0;0;0;1;1117;37;-26.3157;-48.8032
Joinville;4209102;CAICPROF DESEMB FRANCISCO JOSE R DE OLIVEIRA;42124468;1;0;1;0;0;0;1;0;0;0;0;1;752;34;;
Joinville;4209102;E M PROFESSOR SAUL SANTANNA DE OLIVEIRA DIAS;42124476;1;0;1;0;0;0;1;0;0;0;0;1;577;24;-26.3447;-48.80386
Balneário Camboriú;4202008;CEM ARIRIBA;42124514;1;0;1;0;0;0;1;0;0;0;0;1;1014;38;-26.9728647;-48.6436625
Balneário Camboriú;4202008;C E M JARDIM IATE CLUBE;42124522;1;0;1;0;0;0;1;1;0;0;0;1;688;30;-27.012471;-48.6320716
Balneário Camboriú;4202008;CAIC AYRTON SENNA DA SILVA;42124530;1;0;1;0;0;0;1;0;0;0;0;0;1045;39;-27.0071309;-48.639887
Navegantes;4211306;ESC MUN PROFª ELSIR B GAYA MULLER;42124549;1;0;1;0;0;0;1;0;0;0;0;1;614;24;-26.8933598;-48.6513343
Florianópolis;4205407;NEIM ALTINO DEALTINO CABRAL;42124565;1;0;1;0;0;0;0;1;0;0;0;1;50;7;-27.5027715;-48.515575
Fraiburgo;4205506;CEM MACIEIRA;42124573;2;0;1;0;0;0;1;1;0;0;0;1;173;11;-27.079915;-50.89141667
Imbituba;4207304;ESC MUN PROFª HERMINIA DE S MARQUES;42124590;1;0;1;0;0;0;0;1;0;0;0;1;197;10;-28.15259667;-48.691285
Blumenau;4202404;CEI PROFª TEREZA A E AUGSBURGER;42124603;1;0;1;0;0;0;1;0;0;0;0;1;317;41;-26.8668961;-49.1213588
Blumenau;4202404;CEI PAULO ZIMMERMANN;42124611;1;0;1;0;0;0;1;0;0;0;0;1;195;20;-26.8488919;-49.0712257
Blumenau;4202404;EBMB PROF JOAO JOAQUIM FRONZA;42124620;1;0;1;0;0;0;1;0;0;0;0;1;585;33;-26.8591364;-49.1379849
Caxambu do Sul;4204103;ESC MUN BAIRRO ANTENA;42124646;1;0;1;0;0;0;0;0;1;0;0;1;276;19;-27.1626581;-52.8800542
Balneário Camboriú;4202008;N E I MEU PRIMEIRO PASSO;42124662;1;0;1;0;0;0;1;0;0;0;0;1;105;13;-26.97537;-48.64708
Balneário Camboriú;4202008;NEI SANTA CLARA;42124670;1;0;1;0;0;0;1;0;0;0;0;0;103;13;-27.00391762;-48.64003939
Balneário Camboriú;4202008;N E I BRILHO DO SOL;42124689;1;0;1;0;0;0;0;1;0;0;0;1;67;22;-27.03079991;-48.58444132
Lindóia do Sul;4209854;NUCLEO DE EDUC OTTAVIANO NICOLAO;42124697;1;0;1;0;0;0;1;0;0;0;0;1;260;15;-27.05248764;-52.09148394
Maravilha;4210506;CENTRO EDUCACIONAL MUNDO INFANTIL;42124700;1;0;1;0;0;0;0;1;0;0;0;1;752;53;-26.77488496;-53.1907764
Morro da Fumaça;4211207;EEBM BIAZIO MARAGNO;42124727;1;0;1;0;0;0;1;1;0;0;0;1;320;19;-28.5977293;-49.2471024
Palma Sola;4212007;CENTRO EDUCACIONAL FADA MADRINHA;42124743;1;0;1;0;0;0;0;1;0;0;0;1;120;12;-26.35043192;-53.28765539
Palma Sola;4212007;CRECHE CRIANCA FELIZ;42124751;1;0;1;0;0;0;0;1;0;0;0;0;84;10;-26.3526158;-53.2812317
Palma Sola;4212007;PE PINGO DE GENTE;42124760;1;0;1;0;0;0;0;1;0;0;0;1;62;9;-26.34368045;-53.2773457
Aurora;4201901;CENTRO EDUCACIONAL CAMINHO DOS SONHOS;42124786;1;0;1;0;0;0;1;0;0;0;1;0;164;24;-27.30419833;-49.63652
José Boiteux;4209151;ESCOLA ISOLADA MUNICIPAL JESUINO DIAS DE OLIVEIRA;42124794;2;1;1;0;0;0;0;1;0;0;0;1;4;1;;
Rio do Campo;4214508;CENTRO EDUCACIONAL FRITZ FALLER;42124808;2;0;1;0;0;0;1;0;0;0;0;1;101;4;-26.94351667;-50.14221167
Jaborá;4208609;ESCOLA BASICA MUNICIPAL ALBERTO BORDIN;42124840;1;0;1;0;0;0;0;1;0;0;0;1;419;22;-27.17041841;-51.74814636
Abdon Batista;4200051;CRECHE E PRE-ESCOLA DONA TEREZA;42124867;1;0;1;0;0;0;1;0;0;0;0;1;67;10;-27.6081698;-51.0260473
Vargem Bonita;4219176;CENTRO DE EDUCACAO INFANTIL PINGO DE OURO;42124875;1;0;1;0;0;0;1;0;0;0;0;0;62;8;-26.87122749;-51.79276468
Rancho Queimado;4214300;CENTRO DE EDUCACAO INFANTIL MARIAZINHA;42124913;1;0;1;0;0;0;0;1;0;0;0;1;49;6;-27.63948617;-49.10957445
Gaspar;4205902;CDI MARIA DA SILVA;42124921;1;0;1;0;0;0;0;1;0;0;0;1;354;14;-26.9147286;-48.9500439
Gaspar;4205902;CDI VOVO BENTA;42124930;1;0;1;0;0;0;0;1;0;0;0;1;168;12;-26.94512667;-48.98451
Braço do Norte;4202800;CEI VILA NOVA;42124980;1;0;1;0;0;0;1;0;0;0;0;1;86;5;-28.26500221;-49.17846847
Jaguaruna;4208807;PE MUNDO DA CRIANCA;42124999;2;0;1;0;0;0;0;0;1;0;0;0;28;3;-28.63779675;-49.01861144
São Ludgero;4217006;CENTRO DE EDUCACAO INFANTIL DIVINA PROVIDENCIA;42125022;1;0;1;0;0;0;1;0;0;0;0;0;126;12;-28.32889273;-49.15919339
Xaxim;4219705;ESCOLA MUNICIPAL PROFESSORA DIRCE SALETE DALL AGNOL;42125057;1;0;1;0;0;0;0;1;0;0;0;1;436;50;-26.9555626;-52.5407467
Bombinhas;4202453;EB MUN DONA DILMA MAFRA;42125103;1;0;1;0;0;0;1;0;0;0;0;1;370;21;;
Irineópolis;4207908;GRUPO ESCOLAR ZELIA MILLES;42125111;1;0;1;0;0;0;1;1;0;0;0;0;248;13;-26.24795245;-50.80025738
Rio Negrinho;4215000;CMEI VILA NOVA;42125146;1;0;1;0;0;0;1;0;0;0;0;1;130;18;-26.24913816;-49.51100981
Rio Negrinho;4215000;CMEI PEQUENO PRINCIPE;42125154;1;0;1;0;0;0;1;0;0;0;0;0;97;10;-26.23209252;-49.50511381
Rio Negrinho;4215000;CMEI SAO PEDRO;42125162;1;0;1;0;0;0;1;0;0;0;0;1;80;11;-26.26985918;-49.55327011
São Bento do Sul;4215802;EB MUN PROFESSOR NEWTON MENDES;42125170;1;0;1;0;0;0;1;0;0;0;0;1;203;13;-26.270452;-49.3698888
São Bento do Sul;4215802;CEI MUN AMOR PERFEITO;42125200;1;0;1;0;0;0;0;1;0;0;0;1;102;8;-26.2350614;-49.3718951
Catanduvas;4204004;EMEB PROFESSOR VITOLDO ALEXANDRE CZECH;42125227;1;0;1;0;0;0;1;0;0;0;0;1;217;18;-27.05656506;-51.65855427
Garuva;4205803;ESCOLA MUN VICENTE VIEIRA;42125243;1;0;1;0;0;0;1;0;0;0;0;1;1139;34;-26.0359;-48.85233
Joinville;4209102;ESCOLA MUNICIPAL DOUTOR SADALLA AMIN GHANEM;42125260;1;0;1;0;0;0;1;0;1;0;0;1;820;31;-26.36099;-48.81283
Joinville;4209102;ESCOLA MUNICIPAL ENFERMEIRA HILDA ANNA KRISCH;42125278;1;0;1;0;0;0;1;0;0;0;0;1;1185;46;-26.26047;-48.80427
Itaiópolis;4208104;UD DE ITAIOPOLIS;42125294;1;0;1;0;0;0;1;0;0;0;0;0;175;20;-26.33595089;-49.90465501
Mafra;4210100;CEJA DE MAFRA;42125308;1;0;1;0;0;0;1;0;0;0;0;0;192;27;-26.1148;-49.80558
Garuva;4205803;ESC MUN GUILHERME R E P BENKENDORF;42125340;1;0;1;0;0;0;1;1;0;0;0;0;192;7;;
Mafra;4210100;CEIM COMECINHO DE VIDA NATHAAN A RAMOS;42125359;1;0;1;0;0;0;0;1;0;0;0;1;365;26;-26.11730314;-49.81276341
São Francisco do Sul;4216206;CAIC IRMA JOAQUINA;42125367;1;0;1;0;0;0;0;1;0;0;0;1;511;29;-26.249155;-48.6300991
Garuva;4205803;ESC MUN MARIA MARTINS BUDAL;42125375;1;0;1;0;0;0;0;1;0;0;0;1;92;7;-26.02937;-48.8629
Joinville;4209102;ESCOLA MUNICIPAL PROFESSOR AVELINO MARCANTE;42125421;1;0;1;0;0;0;0;1;0;0;0;1;1007;39;-26.25171;-48.8423
Joinville;4209102;ESCOLA MUNICIPAL DR RUBEN ROBERTO SCHMIDLIN;42125430;1;0;1;0;0;0;1;0;0;0;0;1;1155;39;-26.32816;-48.90693
Joinville;4209102;ESCOLA ADVENTISTA JOINVILLE - COSTA E SILVA;42125448;1;0;1;0;0;0;1;0;0;0;0;1;410;25;-26.27127;-48.86792
Itajaí;4208203;CEI PROF DIVA VIEIRA ABRANTES;42125472;1;0;1;0;0;0;1;0;0;0;0;1;407;26;-26.8780423;-48.7503071
Nova Trento;4211504;ESCOLA MUNICIPAL DE EDUCACAO BASICA DE AGUTI;42125480;2;0;1;0;0;0;0;0;1;0;0;1;92;17;-27.31720925;-49.11821754
Concórdia;4204301;CENTRO EDUCACIONAL ARTEDUCACAO;42125499;1;0;1;0;0;0;1;0;0;0;0;0;9;2;-27.23559457;-52.03238697
Navegantes;4211306;CENTRO EDUCACIONAL SANTO ANJO;42125537;1;0;1;0;0;0;1;0;0;0;0;1;234;15;-26.90109;-48.6469
Balneário Piçarras;4212809;CENTRO INTEGRADO DE ENSINO FUNDAMENTAL PROFª MIRIAN GENY FRIEDRICHSEN;42125553;1;0;1;0;0;0;1;0;0;0;0;1;1138;62;-26.77338861;-48.66520509
Camboriú;4203204;CAIC JOVEM AILOR LOTERIO;42125588;1;0;1;0;0;0;1;0;0;0;0;1;2088;76;-27.0020695;-48.6655758
Ponte Alta;4213302;EEB MUN SAO FRANCISCO;42125596;1;0;1;0;0;0;1;0;0;0;0;1;277;13;-27.48452055;-50.37562497
Joaçaba;4209003;CEJA DE JOACABA;42125600;1;0;1;0;0;0;1;0;0;0;0;0;324;21;-27.17612;-51.50403
Três Barras;4218301;EBM FRANCISCO ROCHA;42125618;2;0;1;0;0;0;0;1;0;0;0;0;222;16;-26.16679;-50.16895
Balneário Gaivota;4202073;CEI PINGO DE GENTE;42125626;1;0;1;0;0;0;1;0;0;0;0;0;147;14;-29.13307519;-49.60532517
Barra Bonita;4202099;CENTRO DE EDUCACAO INFANTIL MUNICIPAL PINGO DE GENTE;42125685;2;0;1;0;0;0;0;1;0;0;0;1;50;8;-26.65424464;-53.43860589
São Miguel do Oeste;4217204;CEI SONHO INFANTIL;42125723;1;0;1;0;0;0;0;1;0;0;0;1;101;10;-26.7396471;-53.5259906
São Miguel do Oeste;4217204;EEB SAO JOAO BATISTA;42125731;1;0;1;0;0;0;1;0;0;0;0;0;377;30;-26.72582231;-53.53516066
Itapiranga;4208401;EMIR OSCAR PUHL;42125740;2;0;1;0;0;0;0;1;0;0;0;1;73;9;-27.18088;-53.64125
Itapiranga;4208401;ESCOLA MUNICIPAL DE EDUCACAO INFANTIL PINGUINHO DE GENTE;42125758;1;0;1;0;0;0;1;0;0;0;0;1;51;8;-27.16514;-53.71576
Rio do Sul;4214805;CEI CINDERELA;42125790;1;0;1;0;1;0;1;1;0;0;0;1;309;30;-27.22142526;-49.63336437
Tubarão;4218707;CEJA DE TUBARAO;42125871;1;0;1;0;0;0;1;0;0;0;0;1;285;30;-28.4839819;-49.0086766
Florianópolis;4205407;NEIM JOEL ROGERIO DE FREITAS;42125880;1;0;1;0;0;0;0;1;0;0;0;1;212;15;-27.5894631;-48.6000918
Florianópolis;4205407;COLEGIO E PRE VESTIBULAR SOLUCAO LTDA ME;42125901;1;0;1;0;0;0;1;0;0;0;0;0;238;20;;
Tubarão;4218707;EMEB SAO JUDAS TADEU;42125928;1;0;1;0;0;0;1;0;0;0;0;0;229;18;-28.4777334;-49.0193009
Chapecó;4204202;CEIM BB CRIANCA;42125936;1;0;1;0;0;0;0;0;1;0;0;1;379;22;-27.12259083;-52.61067755
Chapecó;4204202;CEIM AQUARELA;42125944;1;0;1;0;0;0;0;0;1;0;0;1;447;23;-27.08204933;-52.61918742
Braço do Norte;4202800;CENTRO EDUC ALPHA IDEAL;42125952;1;0;1;0;0;0;1;0;0;0;0;1;332;18;-28.27322294;-49.1698291
Braço do Norte;4202800;CEJA DE BRACO DO NORTE;42125979;1;0;1;0;0;0;1;0;0;0;0;0;212;20;-28.283005;-49.1640472
Jaguaruna;4208807;EB MUN PROFª DALCY AVILA DE SOUZA;42125987;1;0;1;0;0;0;0;1;0;0;0;0;756;45;-28.6247739;-49.0157535
Vargeão;4219101;ESC MUN FORTUNATO DANIELLI;42126061;1;0;1;0;0;0;0;1;0;0;0;1;353;20;-26.86384;-52.15285
Imbituba;4207304;COOPERATIVA EDUCACIONAL DE IMBITUBA;42126088;1;0;1;0;0;0;1;0;0;0;1;1;179;20;-28.23879;-48.66255
Imbituba;4207304;CMEI LAURA PERFEITO;42126096;1;0;1;0;0;0;1;0;1;0;0;1;176;25;-28.26706833;-48.69125
Videira;4219309;CENTRO MUNICIPAL DE EDUCACAO INFANTIL LUIZ ANTONIO FACCIO;42126118;1;0;1;0;0;0;0;1;0;0;0;0;187;12;-27.00505242;-51.18357269
Videira;4219309;CENTRO MUNICIPAL DE EDUCACAO INFANTIL VEREADOR JORGE MARTINS;42126126;1;0;1;0;0;0;0;1;0;0;0;0;225;13;-26.98826608;-51.17321962
Pinheiro Preto;4213005;CENTRO EDUCACIONAL PADRE TRUDO PLESSERS;42126142;1;0;1;0;0;0;1;0;0;0;0;0;102;13;-27.04428321;-51.23003265
Caçador;4203006;CEJA DE CACADOR;42126150;1;0;1;0;0;0;1;0;0;0;0;1;177;21;-26.7694983;-51.0194462
Blumenau;4202404;EBM WILHELM THEODOR SCHURMANN;42126177;1;0;1;0;0;0;1;0;0;0;0;1;718;49;-26.83456698;-49.08347254
Irani;4207809;UD DE IRANI;42126185;1;0;1;0;0;0;1;0;0;0;0;1;110;10;-27.0222864;-51.8919531
São Bento do Sul;4215802;CEJA DE SAO BENTO DO SUL;42126207;1;0;1;0;0;0;0;0;1;0;0;0;60;15;-26.24817;-49.45615
São Lourenço do Oeste;4216909;CEJA DE SAO LOURENCO DO OESTE;42126223;1;0;1;0;0;0;0;1;0;0;0;1;159;21;-26.35972032;-52.85286594
Benedito Novo;4202206;CEI PROFESSORA MARINA ALVES MAUS;42126231;1;0;1;0;0;0;1;0;0;0;0;1;96;8;-26.76394833;-49.36019167
Benedito Novo;4202206;CRECHE MUN VER ANTONIO MAURICIO STOLFI;42126240;1;0;1;0;0;0;1;1;0;0;0;1;172;8;-26.77881;-49.41065333
Içara;4207007;CEI APRENDENDO BRINCANDO;42126258;1;0;1;0;0;0;0;1;0;0;0;0;65;6;-28.6893799;-49.3179771
Porto Belo;4213500;NDI MUN PRIMEIROS PASSOS;42126266;1;0;1;0;0;0;1;0;0;0;0;1;293;20;-27.1540943;-48.5917279
Criciúma;4204608;ESCOLA DE SAUDE SAO JOSE;42126282;1;0;1;0;0;0;1;0;0;0;0;1;177;16;-28.67347889;-49.36347152
Araranguá;4201406;CEJA DE ARARANGUA;42126304;1;0;1;0;0;0;1;0;0;0;0;0;143;15;-28.9247107;-49.4798306
Florianópolis;4205407;UD COMPLEXO PENITENCIARIO DE FLORIANOPOLIS;42126320;1;0;1;0;0;0;1;0;0;0;0;0;183;22;-27.57873532;-48.52630103
Laurentino;4209508;UD DE LAURENTINO;42126339;1;0;1;0;0;0;1;0;0;0;0;0;45;4;-27.2232731;-49.7337192
Correia Pinto;4204558;ESCOLA MULT MUN BARRA DOS INDIOS;42126347;2;0;1;0;0;0;0;1;0;0;1;1;11;1;;
Urubici;4218905;CEI BERNADETE BACK WARMLING;42126380;2;0;1;0;0;0;0;1;0;0;0;1;67;4;-28.02314688;-49.49989278
Navegantes;4211306;UD DE NAVEGANTES;42126398;1;0;1;0;0;0;1;0;0;0;0;1;182;18;-26.88883;-48.65977
Itapiranga;4208401;CEJA DE ITAPIRANGA;42126410;1;0;1;0;0;0;1;0;0;0;0;1;46;9;-27.1717016;-53.7124293
Canoinhas;4203808;CEJA DE CANOINHAS;42126452;1;0;1;0;0;0;1;1;0;0;0;1;119;15;-26.1824498;-50.3894532
Praia Grande;4213807;UD DE PRAIA GRANDE;42126487;1;0;1;0;0;0;1;0;0;0;0;0;38;4;-29.18752839;-49.94686603
Florianópolis;4205407;CEPU CENTRO DE ESTUDOS PRE UNIVERSITARIO;42126495;1;0;1;0;0;0;1;0;0;0;0;0;110;4;;
Florianópolis;4205407;CEJA DE FLORIANOPOLIS;42126509;1;0;1;0;0;0;1;0;0;0;0;0;819;101;-27.59769487;-48.54658228
Concórdia;4204301;CEJA DE CONCORDIA;42126517;1;0;1;0;0;0;1;0;0;0;0;1;302;29;-27.23403503;-52.02319278
Criciúma;4204608;CEJA DE CRICIUMA;42126525;1;0;1;0;0;0;1;0;0;0;0;0;242;26;-28.6908728;-49.38837399
Cocal do Sul;4204251;COLEGIO COCAL;42126533;1;0;1;0;0;0;1;0;0;0;0;1;127;16;-28.6031694;-49.3303144
Ituporanga;4208500;CEJA DE ITUPORANGA;42126550;1;0;1;0;0;0;0;1;0;0;0;1;259;25;-27.4082102;-49.6056364
Imbuia;4207403;UD DE IMBUIA;42126568;1;0;1;0;0;0;1;0;0;0;0;1;50;9;-27.4937033;-49.4235904
Balneário Camboriú;4202008;CEJA DEPUTADO DOUTEL DE ANDRADE;42126584;1;0;1;0;0;0;1;0;0;0;0;1;354;21;-27.002469;-48.6314875
Camboriú;4203204;UD DE CAMBORIU;42126606;1;0;1;0;0;0;1;0;0;0;0;0;101;17;-27.0370086;-48.6470642
Luiz Alves;4210001;UD DE LUIZ ALVES;42126614;1;0;1;0;0;0;1;0;0;0;0;0;76;7;-26.7250179;-48.930966
Itajaí;4208203;CEJA DE ITAJAI;42126622;1;0;1;0;0;0;1;0;0;0;0;1;269;32;-26.9158398;-48.6659089
Ilhota;4207106;UD DE ILHOTA;42126630;1;0;1;0;0;0;1;0;0;0;0;0;38;7;-26.9042218;-48.8301876
Rio do Sul;4214805;SENAC;42126649;1;0;1;0;0;0;1;0;0;0;0;1;148;13;-27.2134377;-49.631663
Lages;4209300;CEJA DE LAGES;42126657;1;0;1;0;0;0;1;0;0;0;0;1;794;52;-27.81241809;-50.32518662
Xanxerê;4219507;CEJA DE XANXERE;42126665;1;0;1;0;0;0;0;0;1;0;0;0;227;22;-26.87675967;-52.40369578
Jaraguá do Sul;4208906;CEJA DE JARAGUA DO SUL;42126673;1;0;1;0;0;0;1;0;0;0;0;1;524;36;-26.4954994;-49.0891904
Capinzal;4203907;UD DE CAPINZAL;42126681;1;0;1;0;0;0;1;0;0;0;0;0;151;12;-27.34786166;-51.60733676
Ponte Alta;4213302;UD DE PONTE ALTA;42126711;1;0;1;0;0;0;1;0;0;0;0;0;33;9;-27.4854755;-50.37908544
Treze Tílias;4218509;UD DE TREZE TILIAS;42126720;1;0;1;0;0;0;1;0;0;0;0;0;24;6;-27.00108431;-51.40433393
Chapecó;4204202;CEJA DE CHAPECO;42126738;1;0;1;0;0;0;1;1;0;0;0;0;177;27;-27.10307258;-52.60454527
Indaial;4207502;UD DE INDAIAL;42126762;1;0;1;0;0;0;1;0;0;0;0;1;13;5;-26.87636113;-49.25511195
Apiúna;4201257;UD DE APIUNA;42126770;1;0;1;0;0;0;1;0;0;0;0;0;53;5;-27.03785497;-49.38937987
Blumenau;4202404;CEJA DE BLUMENAU;42126797;1;0;1;0;0;0;1;1;0;0;0;1;474;42;-26.89744262;-49.08101213
Doutor Pedrinho;4205159;UD DE DOUTOR PEDRINHO;42126800;1;0;1;0;0;0;1;0;0;0;0;0;17;5;-26.7173247;-49.48304881
Tijucas;4218004;UD DE TIJUCAS;42126819;1;0;1;0;0;0;1;1;0;0;0;1;330;25;-27.23112;-48.63345
Maravilha;4210506;CEJA DE MARAVILHA;42126851;1;0;1;0;0;0;1;0;0;0;0;1;139;20;-26.76210818;-53.17924826
Meleiro;4210803;UD DE MELEIRO;42126878;1;0;1;0;0;0;1;0;0;0;0;0;33;8;-28.83188365;-49.6297987
Turvo;4218806;EJA -EDUCACAO DE JOVENS E ADULTOS MARIA ALICE DAL PONT;42126886;1;0;1;0;0;0;1;0;0;0;0;1;105;10;-28.9274636;-49.6797836
Sombrio;4217709;UD DE SOMBRIO;42126894;1;0;1;0;0;0;1;0;0;0;0;1;54;10;-29.1115195;-49.6405
Mafra;4210100;CEM BEIJA FLOR;42126916;1;0;1;0;0;0;1;1;0;0;0;1;430;33;-26.09589367;-49.81302878
Mafra;4210100;CEIM ANJO DA GUARDA;42126924;1;0;1;0;0;0;0;1;0;0;0;1;349;30;-26.1144527;-49.7922591
Indaial;4207502;EBM PROFESSORA ANNA ALVES DIAS;42126940;1;0;1;0;0;0;1;0;0;0;0;1;214;17;-26.86700554;-49.19058804
Penha;4212502;EBM RUBENS JOAO DE SOUZA;42126959;1;0;1;0;0;0;0;1;0;0;0;0;970;39;-26.77815666;-48.64373655
Laguna;4209409;EEB ELIZABETH ULYSSEA ARANTES;42126967;1;0;1;0;0;0;1;0;0;0;0;1;161;19;-28.46709208;-48.78267512
Brusque;4202909;ESCOLA DE ENSINO FUNDAMENTAL ANGELO DOGNINI;42126983;1;0;1;0;0;0;1;0;0;0;0;1;428;24;-27.0497058;-48.86782692
Araquari;4201307;ESCOLA MUNICIPAL SAO BENEDITO;42127009;1;0;1;0;0;0;0;1;0;0;0;1;896;35;;
Arroio Trinta;4201604;ESCOLA MUNICIPAL DE 1º GRAU PROFESSORA JACY FALCHETTI;42127033;1;0;1;0;0;0;1;0;0;0;0;1;216;14;-26.9331684;-51.33792703
Água Doce;4200408;PRODERAD PROJ DE EDUC RURAL DE AGUA DOCE;42127050;2;0;1;0;0;0;0;1;0;0;0;1;58;6;-26.82099034;-51.52043351
São Bento do Sul;4215802;CEI MUN FADA MADRINHA;42127068;1;0;1;0;0;0;1;0;0;0;0;1;96;9;-26.2397063;-49.444139
Rio Negrinho;4215000;CMEI JARDIM PRIMAVERA;42127076;1;0;1;0;0;0;1;0;0;0;0;1;52;9;-26.24369333;-49.54015
Rio Negrinho;4215000;EMEB PROFº PEDRO HENRIQUE BERKENBROCK;42127084;1;0;1;0;0;0;1;0;0;0;0;1;324;18;-26.22952993;-49.50348719
Petrolândia;4212700;CE PERIMBO;42127122;1;0;1;0;0;0;1;0;0;0;0;0;309;18;-27.5351961;-49.7020587
Gaspar;4205902;CENTRO DE DESENVOLV INF DORVALINA FACHINI;42127173;1;0;1;0;0;0;0;1;0;0;0;0;401;19;-26.93070985;-48.93482235
Siderópolis;4217600;CM ROSALIA PIERINI SALVARO;42127203;1;0;1;0;0;0;1;0;0;0;0;1;52;6;-28.62767824;-49.40867862
Blumenau;4202404;CEI WILHELM THEODOR SCHURMANN;42127220;1;0;1;0;0;0;1;0;0;0;0;1;157;31;-26.8344965;-49.0841686
Gaspar;4205902;CDI THEREZA BEDUSCHI;42127262;1;0;1;0;0;0;0;1;0;0;0;1;163;9;-26.99962833;-48.89136833
Gaspar;4205902;CDI DEP FRANCISCO MASTELLA;42127270;1;0;1;0;0;0;0;1;0;0;0;1;170;14;-26.9165496;-48.9118228
Jaraguá do Sul;4208906;CMEI ROSA MARIA DONINI;42127289;1;0;1;0;0;0;1;0;0;0;0;0;252;13;-26.4806941;-49.0654724
Jaraguá do Sul;4208906;CMEI GUILHERME TRIBESS;42127297;1;0;1;0;0;0;1;0;0;0;0;1;168;11;-26.5035417;-49.1126316
Jaraguá do Sul;4208906;CMEI ESTRADA NOVA;42127300;1;0;1;0;0;0;1;0;0;0;0;1;275;16;-26.4710836;-49.1296303
